{
  "metadata": {
    "businessType": "Concepteur de sites web",
    "location": "fes",
    "totalResults": 10,
    "scrapedAt": "2025-08-13T20:02:22.507Z",
    "scrapedAtLocal": "8/13/2025, 9:02:22 PM"
  },
  "results": [
    {
      "name": "Metagroup création site web fés",
      "phone": "0708-023048",
      "website": "https://metagroup.ma",
      "emails": [],
      "location": "fes"
    },
    {
      "name": "Appbox",
      "phone": "0690-402020",
      "website": "",
      "emails": [],
      "location": "fes"
    },
    {
      "name": "Création site web Maroc fés",
      "phone": "0708-023048",
      "website": "https://metagroup.ma",
      "emails": [],
      "location": "fes"
    },
    {
      "name": "Webmarko",
      "phone": "0661-511183",
      "website": "",
      "emails": [],
      "location": "fes"
    },
    {
      "name": "NassimSEO Création Site Web",
      "phone": "0669-947515",
      "website": "https://nassimseo.com/creation-site-web-maroc",
      "emails": [
        "contact@nassimseo.com"
      ],
      "location": "fes"
    },
    {
      "name": "isweb",
      "phone": "0532-042566",
      "website": "",
      "emails": [],
      "location": "fes"
    },
    {
      "name": "Fesweb",
      "phone": "05356-51358",
      "website": "https://www.fesweb.net",
      "emails": [],
      "location": "fes"
    },
    {
      "name": "Webeasy",
      "phone": "",
      "website": "",
      "emails": [],
      "location": "fes"
    },
    {
      "name": "Inventis",
      "phone": "05356-21314",
      "website": "http://inventis.ma",
      "emails": [
        "contact@inventis.ma"
      ],
      "location": "fes"
    },
    {
      "name": "MyDigi",
      "phone": "0663-446461",
      "website": "",
      "emails": [],
      "location": "fes"
    }
  ]
}